[
   {
      "name":"영희와바둑이애견미용샵",
      "address":"광주 광산구 하남대로54번안길 13 1층 상가",
      "Latitude":35.177298,
      "longitude":126.7993494,
      "phoneNumber":"062-954-6002",
      "petShopImg":"https://search.pstatic.net/common/?src=https%3A%2F%2Fldb-phinf.pstatic.net%2F20200105_199%2F1578229774372WFm6s_JPEG%2FO4eHYuGV6hMzqy8gXDdXRZwt.jpg"
   },
   {
      "name":"뽀삐샵",
      "address":"광주 광산구 마항5길 3-7 1층",
      "Latitude":35.18495245,
      "longitude":126.7976492,
      "phoneNumber":"0507-1424-2802",
      "petShopImg":"https://search.pstatic.net/common/?src=https%3A%2F%2Fldb-phinf.pstatic.net%2F20230314_186%2F1678802232751EWhTD_JPEG%2FIMG_5443_%25281%2529.jpg"
   },
   {
      "name":"댕댕샵",
      "address":"광주 광산구 하남대로261번길 11 301동 앞 상가 댕댕샵",
      "Latitude":35.18052622,
      "longitude":126.8200147,
      "phoneNumber":"0507-1305-1309",
      "petShopImg":"https://search.pstatic.net/common/?src=https%3A%2F%2Fldb-phinf.pstatic.net%2F20220613_28%2F16550460855011jdj1_JPEG%2F2A31AC58-410E-40FB-95CA-6675C3F9A7D4.jpeg"
   },
   {
      "name":"보보펫",
      "address":"광주 광산구 하남대로54번길 65 1층",
      "Latitude":35.17711878,
      "longitude":126.7997703,
      "phoneNumber":"062-955-0082",
      "petShopImg":"https://search.pstatic.net/common/?src=https%3A%2F%2Fldb-phinf.pstatic.net%2F20210106_141%2F16099317300938ntDJ_JPEG%2FIdrvOMXtbvZLNai75cdHrrAY.jpg"
   },
   {
      "name":"The 사랑할개",
      "address":"광주 남구 서문대로627번길 19",
      "Latitude":35.11447346,
      "longitude":126.8950979,
      "phoneNumber":"062-653-4815",
      "petShopImg":"https://search.pstatic.net/common/?src=https%3A%2F%2Fldb-phinf.pstatic.net%2F20210830_16%2F1630319618753MeeJT_JPEG%2FK-_gQrg3e-6bb91mHqfyRUkL.jpeg.jpg"
   },
   {
      "name":"메리펫샵",
      "address":"광주 동구 경양로 234 상가119동 1층 809호",
      "Latitude":35.15755986,
      "longitude":126.915894,
      "phoneNumber":"010-5777-5168",
      "petShopImg":"https://search.pstatic.net/common/?src=https%3A%2F%2Fldb-phinf.pstatic.net%2F20231101_255%2F16988221645759hxuE_JPEG%2FIMG_4050.jpeg"
   },
   {
      "name":"헬로퍼피애견미용샵",
      "address":"광주 동구 동계로 38",
      "Latitude":35.15557038,
      "longitude":126.9256843,
      "phoneNumber":"0507-1469-2238",
      "petShopImg":"https://search.pstatic.net/common/?src=https%3A%2F%2Fldb-phinf.pstatic.net%2F20210124_260%2F1611456495070wEOAy_JPEG%2FbHgWT8F0XSGx1L-uxj6YUKtQ.jpg"
   },
   {
      "name":"유폴 24시 애견셀프목욕 광주각화점",
      "address":"광주 북구 군왕로 295 116동 124호",
      "Latitude":35.18660427,
      "longitude":126.9375953,
      "phoneNumber":"0507-1357-9165",
      "petShopImg":"https://search.pstatic.net/common/?src=https%3A%2F%2Fldb-phinf.pstatic.net%2F20231117_98%2F1700223531279YSCkL_JPEG%2F33B91349-DDA2-459C-B957-D74D303E0C5C.jpeg"
   },
   {
      "name":"호수펫",
      "address":"광주 북구 양산제로 105 111호 호수펫",
      "Latitude":35.20328456,
      "longitude":126.8697414,
      "phoneNumber":"0507-1303-1379",
      "petShopImg":"https://search.pstatic.net/common/?src=https%3A%2F%2Fldb-phinf.pstatic.net%2F20191103_6%2F15727887283949Ng3S_JPEG%2FcllftWxN53rv9hEqqAU3TikX.jpg"
   },
   {
      "name":"몽이뭉치애견샵",
      "address":"광주 북구 양산제로 112 . 상가동 1층 107호",
      "Latitude":35.20307914,
      "longitude":126.8707483,
      "phoneNumber":"0507-1498-9334",
      "petShopImg":"https://search.pstatic.net/common/?src=https%3A%2F%2Fldb-phinf.pstatic.net%2F20230727_253%2F16904251611919mJPG_JPEG%2FKakaoTalk_20230727_112851175.jpg"
   },
   {
      "name":"발사탕 펫살롱",
      "address":"광주 서구 군분로169번길 15-19 1층 발사탕 펫살롱",
      "Latitude":35.14561719,
      "longitude":126.8856275,
      "phoneNumber":"010-4718-1055",
      "petShopImg":"https://search.pstatic.net/common/?src=https%3A%2F%2Fldb-phinf.pstatic.net%2F20220709_33%2F1657340208722squ4s_JPEG%2F1657339783043.jpg"
   },
   {
      "name":"김채안퍼피살롱",
      "address":"광주 서구 금부로95번길 48-1",
      "Latitude":35.14404467,
      "longitude":126.8580881,
      "phoneNumber":"010-8432-0771",
      "petShopImg":"https://search.pstatic.net/common/?src=https%3A%2F%2Fldb-phinf.pstatic.net%2F20200417_37%2F1587098726424fBNnT_JPEG%2Ft34D-syRBmUN50qkjeKcH9gP.jpeg.jpg"
   },
   {
      "name":"마이펫",
      "address":"광주 서구 풍금로11번길 12",
      "Latitude":35.12051496,
      "longitude":126.8646319,
      "phoneNumber":"062-682-2512",
      "petShopImg":"https://search.pstatic.net/common/?src=https%3A%2F%2Fldb-phinf.pstatic.net%2F20201102_219%2F1604310997185ha2CU_JPEG%2FGvhNxKsodKH0tmNAItJm115E.jpg"
   },
   {
      "name":"개털도사",
      "address":"광주 서구 화개1로 59-2 상가128동 107호",
      "Latitude":35.1313264,
      "longitude":126.8536475,
      "phoneNumber":"010-5073-5628",
      "petShopImg":"https://search.pstatic.net/common/?src=https%3A%2F%2Fldb-phinf.pstatic.net%2F20231114_225%2F1699958132521Xf05O_JPEG%2FKakaoTalk_20231114_192337588.jpg"
   },
   {
      "name":"버블펫",
      "address":"광주 서구 화개1로 63 1층 108호 (금호동) 버블펫",
      "Latitude":35.12963049,
      "longitude":126.855006,
      "phoneNumber":"0507-1393-7700",
      "petShopImg":"https://search.pstatic.net/common/?src=https%3A%2F%2Fldb-phinf.pstatic.net%2F20190303_175%2F1551600622427OmM7Q_JPEG%2F4zAV6rytH_CLkPN7wMA884CM.jpg"
   },
   {
      "name":"알로하펫",
      "address":"광주 서구 화운로 116-1",
      "Latitude":35.14985137,
      "longitude":126.8788038,
      "phoneNumber":"0507-1407-6997",
      "petShopImg":"https://search.pstatic.net/common/?src=https%3A%2F%2Fldb-phinf.pstatic.net%2F20230503_264%2F1683078781581hkN9m_JPEG%2FKakaoTalk_Photo_2023-05-03-10-52-10.jpeg"
   }
]